,Venue,Venue Latitude,Venue Longitude,Venue Category
0,Genco,50.841465468301266,4.353082880796765,Italian Restaurant
1,COCO Donuts,50.84121933608233,4.355315395955761,Donut Shop
2,Chez Richard,50.84135655151986,4.353860490837147,Gastropub
3,Au Vieux Saint Martin,50.84098420935296,4.354737304494475,Belgian Restaurant
4,À l'Ombre de la Ville,50.839148954093744,4.360859340596551,Italian Restaurant
5,Café des Minimes,50.8394158455922,4.35285311353758,Bistro
6,Les Petits Oignons,50.839327,4.35517,Brasserie
7,Bol,50.84048132396721,4.359800254986037,Salad Place
8,Senzanome,50.84022053593366,4.35659709335632,Modern European Restaurant
9,Il Passatempo,50.84039680575445,4.359848604127714,Italian Restaurant
10,San Sablon,50.841455653806825,4.352328687266131,French Restaurant
11,Le Perroquet,50.839444736206175,4.35375987365937,Brasserie
12,Thérèse & Dominique,50.834178,4.354898,Sandwich Place
13,Le III'ème Acte,50.83942608278255,4.353314360830822,Restaurant
14,"C'est Bon C'est Belge - ""La Terrasse""",50.842025,4.352583,Belgian Restaurant
15,Lola,50.8406,4.35478,Brasserie
16,Le Pain Quotidien,50.84004,4.35536,Bakery
17,La Pizza è Bella,50.8418,4.35383,Italian Restaurant
18,Colonel,50.83390264555281,4.355229366918499,Steakhouse
19,L'Aubette,50.838715061662626,4.348405613581639,Restaurant
20,Berlin Fabrik,50.84091360388832,4.351438879966736,Burger Joint
21,Nonno Piadineria,50.83833855085722,4.3499085275306015,Sandwich Place
22,Shuka,50.8364846672921,4.360712065792966,Restaurant
23,Peck 20,50.834575733457214,4.35505972282417,Breakfast Spot
24,L'Epicerie,50.8345212501941,4.361680499733127,Sandwich Place
25,El Fontan,50.837812320480644,4.349388911889659,Tapas Restaurant
26,Les Brigittines 'Aux Marches de la Chapelle',50.84137906146279,4.350601475217743,French Restaurant
27,Le Rabassier,50.841924399176555,4.35310413620878,Modern European Restaurant
28,Les Vignes du Liban,50.838608,4.350103,Lebanese Restaurant
29,LOFT Resto & Bar,50.83989692150364,4.360196089619271,Gastropub
30,.G-EA,50.83446511944978,4.354835921558278,French Restaurant
31,Chyl Cafe,50.83684290185589,4.35819189480127,Belgian Restaurant
32,Pois Chiche,50.84104,4.351324,Falafel Restaurant
33,Hana,50.83627465416241,4.36410475750093,Korean Restaurant
34,Tonton Garby,50.84525717039893,4.354858905083845,Sandwich Place
35,Nuovo Rosso,50.83354036199575,4.3525895339050535,Italian Restaurant
36,Pholaumi,50.83413143870965,4.355046453875077,Vietnamese Restaurant
37,Sophie Chocolat,50.835195959710845,4.359351975400904,Deli / Bodega
38,G Spud,50.83473657150337,4.355443573639909,Salad Place
39,AL JANNAH,50.84,4.34944,Restaurant
40,Caffe latte,50.840038843192836,4.367444825873085,Café
41,Chumadia,50.832476351308635,4.352264032488975,Eastern European Restaurant
42,Restobières,50.837,4.34756,Belgian Restaurant
43,Comme Chez Soi,50.84268760413438,4.345941559144616,French Restaurant
44,Certo,50.835687582071465,4.366687701310767,Italian Restaurant
45,L'Express,50.84611540754583,4.352709136465736,Middle Eastern Restaurant
46,Maison Dandoy - Louise,50.8339,4.35768,Bakery
47,Inzia,50.83604313477361,4.365731714673953,African Restaurant
48,Be Bō Būn,50.83416199070699,4.358822036725687,Vietnamese Restaurant
49,Les Larmes du Tigre,50.835661595995994,4.350712512282384,Thai Restaurant
50,Carlos,50.831609,4.354775,Sandwich Place
51,Café Wiltcher's (Steigenberger Grandhotel Brussels,50.83224219410226,4.357481918450322,French Restaurant
52,Osteria Bolognese,50.836394052546986,4.366005290380888,Trattoria/Osteria
53,BALLEKES,50.8461111345345,4.352719167496369,Belgian Restaurant
54,Pasta Divina,50.8466166781727,4.355069630502383,Italian Restaurant
55,El Turco,50.8377,4.36847,Mediterranean Restaurant
56,De Pistolei,50.84608759273417,4.354947038870134,Sandwich Place
57,Nüetnigenough,50.8458,4.349977,Belgian Restaurant
58,Hard Rock Cafe Brussels (Hard Rock Cafe Brussel),50.84615947593924,4.352892507357637,American Restaurant
59,Al Barmaki,50.845105549501625,4.353176361751802,Lebanese Restaurant
60,Gazzetta,50.831496,4.360387,Italian Restaurant
61,Plaka,50.845871555881054,4.352865978423749,Greek Restaurant
62,La Cantina,50.845154,4.3477697,Brazilian Restaurant
63,La Crèche des Artistes,50.834153308437195,4.368178329808504,Italian Restaurant
64,The Noodle Bar Brussels,50.8458,4.35304,Asian Restaurant
65,Houtsiplou,50.843000104777914,4.346013642965431,Brasserie
66,Le Bistro - Porte de Hal,50.8335,4.3453,Brasserie
67,Le 2ème Élément,50.83590202236628,4.364781316453308,Thai Restaurant
68,Sir Hanry's,50.839607,4.365814,Middle Eastern Restaurant
69,Manhattn's Burgers,50.8475,4.35022,Restaurant
70,Gatsu Gatsu,50.84657769883755,4.354498159133721,Asian Restaurant
71,Restaurant de l'Ogenblik,50.8483,4.35454,Gastropub
72,Maison Dandoy - Galeries,50.8484,4.35573,Bakery
73,Rachel - Bagels & Burgers,50.84548350289039,4.347580982326141,Bagel Shop
74,Dolce Amaro,50.82923546192286,4.3557683695732825,Italian Restaurant
75,La Cantinetta,50.83592620632904,4.365096039805167,Italian Restaurant
76,Jour de Fête,50.8456000611442,4.346771836674059,Restaurant
77,Tapas Locas,50.8458,4.3485,Tapas Restaurant
78,Peck 47,50.84864957984828,4.351121117164176,Sandwich Place
79,Le Marmiton,50.84780873680588,4.354855467180019,Restaurant
80,Bia Mara,50.848682,4.350707,Fish & Chips Shop
81,Yaki Grand Place,50.8464,4.35022,Thai Restaurant
82,JeanBon,50.837931,4.367972,Deli / Bodega
83,Comptoir des Galeries,50.84794927789172,4.354932949985298,French Restaurant
84,Chez Gudule,50.84746690020051,4.36155575915134,Bistro
85,Corica Grand Place,50.8485,4.35109,Café
86,Le Pain Quotidien,50.830660208769,4.360934570431709,Bakery
87,Bella Italia,50.83407256244245,4.345282720286306,Italian Restaurant
88,Bia Mara,50.83782439764468,4.368059732798096,Fish & Chips Shop
89,Thai Talks,50.84689343001388,4.350882333065693,Thai Restaurant
90,Mr. Falafel,50.84415110075447,4.345317004980036,Falafel Restaurant
91,Fanny Thai,50.848166,4.347986,Thai Restaurant
92,Mémé Café,50.84688031973174,4.34714587143564,Mediterranean Restaurant
93,makifornia,50.84131409617471,4.343881439943031,Sushi Restaurant
94,CiPiaCe Bruxelles,50.8306,4.34594,Italian Restaurant
95,La Caneva,50.8455,4.34825,Italian Restaurant
96,Foodmaker,50.84825529562059,4.356550951670125,Vegetarian / Vegan Restaurant
97,Mirante Pizzeria,50.84670634961548,4.348769516083077,Pizza Place
98,La Braise,50.83100616656503,4.346114594792333,BBQ Joint
99,El Greco,50.847145,4.3526134,Greek Restaurant
100,La Piola Pizza,50.849512,4.374127,Pizza Place
101,La Mamma,50.8494,4.37417,Italian Restaurant
102,Meet Meat,50.844756206030794,4.381285093100976,Steakhouse
103,Dilmon La Table d'Orient,50.85090703910355,4.381978909757168,Middle Eastern Restaurant
104,EXKi,50.844204447019784,4.381906840372005,Sandwich Place
105,Cherry Delicatessen,50.841773,4.378834,Café
106,The Wild Geese,50.84475610730734,4.377477989158419,Gastropub
107,Shere-E-Punjab,50.84838664772726,4.374043790565799,Indian Restaurant
108,Il Capriccio Di Offenbach,50.84732425784768,4.372943046538127,Italian Restaurant
109,Pasticceria Giovanni,50.8518996601732,4.3858151210795615,Italian Restaurant
110,Van Dender,50.852183557830536,4.387066164967126,Bakery
111,Öz Tetik,50.85401364187528,4.373601955240988,Kebab Restaurant
112,Kafenio,50.8444852119939,4.381929402382006,Greek Restaurant
113,Better than Hungry,50.8493,4.36778,Asian Restaurant
114,Art's & Bagels,50.84183065578024,4.38417230123926,Bagel Shop
115,Costa d'Amalfi,50.843991,4.384744,Italian Restaurant
116,Le Mangeoire,50.84940667046033,4.366783489276259,Deli / Bodega
117,Basils,50.849865,4.366902,Italian Restaurant
118,Keep On Toasting,50.84290080453858,4.370482324299152,Food Truck
119,Omiros,50.849065334684425,4.374143505240896,Greek Restaurant
120,Stick That Meat,50.840522,4.378432,Souvlaki Shop
121,The Office (Creative Coffee & Salad),50.84168793727687,4.373390306105863,Café
122,La Galia,50.84333755863499,4.37521039281525,Restaurant
123,Le Grand Central,50.84031457915534,4.380390280430053,Gastropub
124,Mi-Tango,50.84698945553779,4.375008950892669,Argentinian Restaurant
125,Osteria pane e vino,50.845389,4.383625,Trattoria/Osteria
126,Pasta Bar,50.84852250549064,4.366952717855309,Italian Restaurant
127,Ethnic Foods,50.848006586453565,4.3642970287472025,Sandwich Place
128,Ego Ristorante Pizzeria,50.8450185749105,4.3825684165163885,Pizza Place
129,Le Botaniste,50.844172,4.38405,Vegetarian / Vegan Restaurant
130,Kargin Restaurant,50.854914872271344,4.3689330344149155,Middle Eastern Restaurant
131,Les Caprices d'Harmony,50.847355011589904,4.392640983469214,French Restaurant
132,Citron Vert,50.84927191833425,4.365786201633343,Thai Restaurant
133,Noordzee / Mer du Nord,50.8395,4.37188,Fish & Chips Shop
134,Saco Pizza Bar,50.852537995229,4.395240386475771,Pizza Place
135,Copain,50.85717757252154,4.388539227766204,Restaurant
136,Meatropolis,50.839278,4.385783,Greek Restaurant
137,Living Room Boutique Restaurant,50.84070333676806,4.379629348840551,Restaurant
138,Les Dames Tartine,50.85582825627833,4.3685790096357815,French Restaurant
139,Food To Go,50.83945422919487,4.373498543186548,Sandwich Place
140,Proznack,50.84860072046173,4.367387979765824,Sandwich Place
141,Hanımeli,50.857944532242946,4.370086238524075,Turkish Restaurant
142,Hanedan Pizzeria & Kebap,50.857058536273406,4.369424793847953,Kebab Restaurant
143,'t Potverdoemmeke,50.859232724325885,4.38158557754918,Belgian Restaurant
144,La Selva,50.85615411085047,4.392162660195494,Italian Restaurant
145,La Maison du Luxembourg,50.839509902405,4.3710278420405535,French Restaurant
146,Elvis Foodstore,50.84232193576528,4.371146054472774,Sandwich Place
147,Le Petit Coin Royal,50.85228332854515,4.3653673206392085,Sandwich Place
148,Eccetera,50.8363,4.38161,Italian Restaurant
149,Di Tommaso,50.848105498276425,4.36491644858199,Italian Restaurant
150,黑板 Kokuban Schuman,50.840432008548184,4.379272034042649,Japanese Restaurant
151,Casa Mia,50.84568378573106,4.369603106967995,Italian Restaurant
152,Un Posto Al Sole,50.850620301065526,4.3967455075873305,Italian Restaurant
153,Eskape,50.83834282654197,4.37292055438852,Vegetarian / Vegan Restaurant
154,Snack Meiser Friterie,50.8559851028176,4.393331771026918,Friterie
155,Attica,50.84294633820357,4.375264528582243,Greek Restaurant
156,Le Zinneke,50.8568,4.39141,Belgian Restaurant
157,De Meyboom,50.850874996240826,4.360312355358712,Gastropub
158,Fantastico,50.84901551651027,4.3655549339055675,Italian Restaurant
159,Per Bacco,50.848412490466885,4.364287520760001,Italian Restaurant
160,Atelier du Sushi,50.85447461981229,4.387590268606773,Sushi Restaurant
161,Lale Pizzeria,50.85852311927038,4.370294075300681,Pizza Place
162,De Bruxelles et d'Ailleurs,50.84942317745353,4.366679720905375,African Restaurant
163,La Femme du Sommelier,50.85211796670788,4.36548502370053,Restaurant
164,Le Max,50.85040410738493,4.394667024084607,Italian Restaurant
165,Il Veliero,50.83659833016774,4.382442445986242,Italian Restaurant
166,Il Pasticcio,50.838911610451184,4.3708485353762265,Italian Restaurant
167,Star of Asia,50.838,4.37248,Indian Restaurant
168,Faraglioni,50.84928501928918,4.38947453671023,Pizza Place
169,Don Luis,50.853657,4.385433,Portuguese Restaurant
170,Paolo's Idea,50.840433472264024,4.3851277904581885,Italian Restaurant
171,Il Convivio,50.85450323884344,4.360815511880558,Italian Restaurant
172,Saveurs Thai,50.85386153732107,4.385935745941076,Asian Restaurant
173,Karaca Concept Resto,50.85823763641331,4.3831738327326395,Turkish Restaurant
174,Beyzade Restaurant,50.85840555748533,4.370008168350126,Buffet
175,Konya,50.85508869253888,4.3689247864784635,Restaurant
176,Snack Tetik - Chez Kadir,50.85394593397097,4.3708208159480275,Snack Place
177,L'Estaminet,50.859716,4.370405,Estaminet
178,Sea Grill,50.84972476330366,4.3565835306150875,Seafood Restaurant
179,Le Bier Circus,50.84872059376704,4.364976951101005,Belgian Restaurant
180,Koçak,50.858790672239934,4.3703080581247296,Pizza Place
181,Ergon Greek Deli + Cuisine,50.83877000075877,4.370785840314915,Greek Restaurant
182,Maison Antoine,50.83676342469918,4.381418456677247,Friterie
183,Sakagura,50.85078815065489,4.3579011924721165,Japanese Restaurant
184,The Foodmaker,50.84014405845758,4.368486411775189,Breakfast Spot
185,Saco Pizza Bar 2,50.84797953169396,4.364214521294256,Pizza Place
186,NB Sandwichs,50.84162524847572,4.369502868139959,Snack Place
187,Au Vatel,50.83703540495438,4.38150773245093,Bakery
188,Pizza Liloo,50.83282464209709,4.386596607425227,Pizza Place
189,Poule & Poulette,50.83762134554176,4.380706972890558,Fried Chicken Joint
190,Le Tournant,50.83557189330396,4.369754485794256,French Restaurant
191,Kitchen 151,50.83558522657913,4.369725688361203,Mediterranean Restaurant
192,Origine,50.836744,4.383398,French Restaurant
193,Dea's Pizza,50.829769860647204,4.379335258613648,Pizza Place
194,Stirwen,50.836493596011174,4.381994165775711,Belgian Restaurant
195,My Tannour,50.8282538148814,4.376091871060191,Middle Eastern Restaurant
196,Gâteau,50.83674477346586,4.391704560485113,Bakery
197,Il Nobile,50.83343412264647,4.366819679988518,Italian Restaurant
198,Corica Quartier Européen,50.8387,4.37066,Café
199,La Fleur du Pain,50.827873070218764,4.373492498182259,Bakery
200,Ellinikon,50.83809466527462,4.397090274997339,Greek Restaurant
201,La Meute,50.82780255484013,4.371010205476259,Steakhouse
202,Takumi,50.827809014266606,4.370994921665348,Japanese Restaurant
203,La Petite Production,50.8298,4.37086,Breakfast Spot
204,Sukhothai,50.83603622533913,4.387252346674218,Thai Restaurant
205,Essgo Grill,50.83097037134207,4.390565286330126,Snack Place
206,Renard Bakery,50.8334920397574,4.366213968792886,Bakery
207,Au Cor de Chasse,50.8294556723673,4.390068054199218,Portuguese Restaurant
208,Mano a Mano,50.835824454492936,4.364688992500305,Italian Restaurant
209,Cõcīna,50.827772052544084,4.370522620057592,Restaurant
210,Ouzerie Mezedopolio,50.83122350249755,4.3685717790869285,Greek Restaurant
211,Caramulo,50.82787380980535,4.374917333830864,Portuguese Restaurant
212,PokiPoké,50.8286526308314,4.37056839466095,Poke Place
213,Manhattn's Burgers,50.839,4.39816,Restaurant
214,Pim Coffee On The Go,50.82760368397206,4.372362486155857,Food Truck
215,Comptoir Rodin,50.82750573923793,4.381564632776168,Sandwich Place
216,Kipkot,50.83583521746461,4.3650319577783545,Fried Chicken Joint
217,Il Vesuvio,50.828583,4.3906517,Italian Restaurant
218,Semsom,50.827694,4.366004,Middle Eastern Restaurant
219,El Mexicanito,50.836395,4.363995,Mexican Restaurant
220,Le Buone Maniere,50.838269995811864,4.401875272022877,Italian Restaurant
221,L'Intermezzo,50.84982657244402,4.3544502292865666,Italian Restaurant
222,Maxi Bagi,50.85193149798015,4.354047807332508,Sandwich Place
223,Chez Léon,50.8483,4.35403,Belgian Restaurant
224,Baogo,50.84879017675006,4.352901023925718,Burger Joint
225,Noordzee - Mer du Nord (De Noordzee),50.8503,4.34771,Fish & Chips Shop
226,Le Vismet,50.85100503231949,4.350142622014003,Seafood Restaurant
227,Wolf,50.849923,4.35628,Food Court
228,Maison Dandoy,50.8474,4.35158,Bakery
229,À la Bécasse,50.84837499952941,4.351419890225042,Gastropub
230,Oysters & Smørrebrød,50.8503,4.3478,Seafood Restaurant
231,Le Scheltema,50.848160612868945,4.3543651719605805,Seafood Restaurant
232,Balls & Glory,50.84770081967388,4.350339546069608,Belgian Restaurant
233,Toukoul,50.852267439086994,4.351054407895912,Ethiopian Restaurant
234,Pré de Chez nous,50.84844109832127,4.354682434197112,Restaurant
235,EXKi,50.84671208166079,4.354377592923946,Sandwich Place
236,Bombay Inn,50.8487,4.35335,Indian Restaurant
237,NONA,50.84991728952105,4.348259592595226,Pizza Place
238,Wokup Noodle,50.84858983244309,4.3533114767126895,Asian Restaurant
239,Gourmets Every Day,50.849211394130194,4.348668158054352,Chinese Restaurant
240,La Kasbah,50.8492,4.34723,Restaurant
241,Fin de Siècle,50.84884088676664,4.347177921658792,Belgian Restaurant
242,Beijingya,50.85032456418949,4.349433162754255,Chinese Restaurant
243,Restauration Roumaine,50.849775570859876,4.350960053897927,Eastern European Restaurant
244,Makisu,50.85063003277905,4.347151590756276,Sushi Restaurant
245,Charli,50.85017167096025,4.347781544068518,Bakery
246,Knees to Chin,50.85099489253758,4.346802568956957,Asian Restaurant
247,Le Pain Quotidien,50.84714788114189,4.3546320497989655,Bakery
248,La Maison des Crêpes,50.84711612799992,4.350553132126129,Creperie
249,Samourai,50.85034923440301,4.3543890849796885,Japanese Restaurant
250,ABC Poissonerie,50.850322,4.347388,Seafood Restaurant
251,Brasserie de l'Ommegang,50.84656550922511,4.352608763548891,Brasserie
252,la guinguette en ville,50.852565,4.349574,Comfort Food Restaurant
253,La Boule Rouge,50.84681731868693,4.351037894419966,Belgian Restaurant
254,El Bocadillo,50.851036077674614,4.350466520792152,Sandwich Place
255,Pampas - Rodizio,50.85111821561913,4.348974765520099,Brazilian Restaurant
256,Publico,50.84881911318624,4.34655525971963,Mediterranean Restaurant
257,Le Cirio,50.848249974069326,4.350554015331112,Gastropub
258,Le Pain Quotidien,50.84918006531707,4.3472787737846375,Bakery
259,Gramm,50.8522103240111,4.346079594926886,French Restaurant
260,La Belle Maraichère,50.85084466145241,4.348021769866575,French Restaurant
261,Chicago Café,50.85160499425515,4.346479661199551,Breakfast Spot
262,Snack Bunny,50.8543526513474,4.35781025844044,Snack Place
263,Frites Atelier,50.85005460801756,4.347838346419132,Friterie
264,A Casa Mia,50.851481204227646,4.346484362140541,Italian Restaurant
265,Les Filles,50.84914572337833,4.3456311036523765,Restaurant
266,Café Béguin,50.851636507639725,4.3506439787490505,Mediterranean Restaurant
267,La Marée,50.8528,4.34589,Seafood Restaurant
268,Viva M'Boma,50.85104723116887,4.347052323987401,Belgian Restaurant
269,Yi Chan,50.84824701162662,4.348631717062444,Vietnamese Restaurant
270,Beaucoup Fish,50.85567508184744,4.3512247565224165,Restaurant
271,Henri,50.85295915663303,4.345090896599143,Belgian Restaurant
272,Atelier des Pâtes,50.84162251410343,4.359503629511135,Italian Restaurant
273,Bifanas,50.84873922491636,4.354907617922596,Portuguese Restaurant
